[
    {
        "id": 420,
        "name": "혜화",
        "line": "4호선",
        "latitude": 37.582336,
        "longitude": 127.001844,
        "district": "종로구"
    },
    {
        "id": 421,
        "name": "동대문",
        "line": "4호선",
        "latitude": 37.57093,
        "longitude": 127.009287,
        "district": "종로구"
    },
    {
        "id": 422,
        "name": "동대문역사문화공원",
        "line": "4호선",
        "latitude": 37.565133,
        "longitude": 127.007885,
        "district": "중구"
    },
    {
        "id": 423,
        "name": "충무로",
        "line": "4호선",
        "latitude": 37.561207,
        "longitude": 126.99408,
        "district": "중구"
    },
    {
        "id": 424,
        "name": "명동",
        "line": "4호선",
        "latitude": 37.560989,
        "longitude": 126.986325,
        "district": "중구"
    },
    {
        "id": 425,
        "name": "회현(남대문시장)",
        "line": "4호선",
        "latitude": 37.558514,
        "longitude": 126.978246,
        "district": "중구"
    },
    {
        "id": 426,
        "name": "서울역",
        "line": "4호선",
        "latitude": 37.55281,
        "longitude": 126.972556,
        "district": "용산구"
    },
    {
        "id": 427,
        "name": "숙대입구(갈월)",
        "line": "4호선",
        "latitude": 37.54456,
        "longitude": 126.972106,
        "district": "용산구"
    },
    {
        "id": 428,
        "name": "삼각지",
        "line": "4호선",
        "latitude": 37.534075,
        "longitude": 126.9726,
        "district": "용산구"
    },
    {
        "id": 429,
        "name": "신용산",
        "line": "4호선",
        "latitude": 37.52917,
        "longitude": 126.967894,
        "district": "용산구"
    },
    {
        "id": 430,
        "name": "이촌(국립중앙박물관)",
        "line": "4호선",
        "latitude": 37.522295,
        "longitude": 126.974733,
        "district": "용산구"
    },
    {
        "id": 10647,
        "name": "이촌(국립중앙박물관)",
        "line": "4호선",
        "latitude": 37.522295,
        "longitude": 126.974733,
        "district": "용산구"
    },
    {
        "id": 10648,
        "name": "신용산",
        "line": "4호선",
        "latitude": 37.52917,
        "longitude": 126.967894,
        "district": "용산구"
    },
    {
        "id": 10649,
        "name": "삼각지",
        "line": "4호선",
        "latitude": 37.534075,
        "longitude": 126.9726,
        "district": "용산구"
    },
    {
        "id": 10650,
        "name": "숙대입구(갈월)",
        "line": "4호선",
        "latitude": 37.54456,
        "longitude": 126.972106,
        "district": "용산구"
    },
    {
        "id": 10651,
        "name": "서울역",
        "line": "4호선",
        "latitude": 37.55281,
        "longitude": 126.972556,
        "district": "용산구"
    },
    {
        "id": 10652,
        "name": "회현(남대문시장)",
        "line": "4호선",
        "latitude": 37.558514,
        "longitude": 126.978246,
        "district": "중구"
    },
    {
        "id": 10653,
        "name": "명동",
        "line": "4호선",
        "latitude": 37.560989,
        "longitude": 126.986325,
        "district": "중구"
    },
    {
        "id": 10654,
        "name": "충무로",
        "line": "4호선",
        "latitude": 37.561207,
        "longitude": 126.99408,
        "district": "중구"
    },
    {
        "id": 10655,
        "name": "동대문역사문화공원",
        "line": "4호선",
        "latitude": 37.565133,
        "longitude": 127.007885,
        "district": "중구"
    },
    {
        "id": 10656,
        "name": "동대문",
        "line": "4호선",
        "latitude": 37.57093,
        "longitude": 127.009287,
        "district": "종로구"
    },
    {
        "id": 10657,
        "name": "혜화",
        "line": "4호선",
        "latitude": 37.582336,
        "longitude": 127.001844,
        "district": "종로구"
    }
]